City_ID,City,Lat,Lng,Max Temp,Humidity,Cloudiness,Wind Speed,Country
0,Wake Forest,35.9799,-78.5097,44.91,64,0,5.99,US
1,Marsh Harbour,26.5412,-77.0636,78.84,72,1,10.27,BS
2,Atbasar,51.8,68.3333,33.71,98,100,23.31,KZ
3,Chifeng,42.2683,118.9636,29.07,72,3,5.3,CN
4,Hithadhoo,-0.6,73.0833,81.16,77,100,13.2,MV
5,Barrow,71.2906,-156.7887,17.62,73,100,9.22,US
6,Chokurdakh,70.6333,147.9167,-18.67,97,100,7.34,RU
7,Gallup,35.5281,-108.7426,43.56,35,100,14.97,US
8,Georgetown,5.4112,100.3354,80.53,92,20,5.75,MY
9,Kapaa,22.0752,-159.319,82.38,70,40,16.11,US
10,Yulara,-25.2406,130.9889,72.19,33,0,13.35,AU
11,Nicoya,10.1483,-85.452,75.18,92,100,4.81,CR
12,Abha,18.2164,42.5053,53.85,71,0,0.0,SA
13,San Ramon,37.7799,-121.978,57.52,49,0,9.22,US
14,Bengkulu,-3.8004,102.2655,73.27,95,100,5.61,ID
15,Kokopo,-4.352,152.2633,85.14,65,100,4.56,PG
16,Beloha,-25.1667,45.05,70.95,78,0,8.93,MG
17,Ushuaia,-54.8,-68.3,53.26,58,20,4.61,AR
18,Jiwani,25.05,61.7417,78.39,73,0,7.58,PK
19,Jamestown,42.097,-79.2353,35.19,76,100,11.5,US
20,Albany,42.6001,-73.9662,38.39,74,7,1.01,US
21,Biliran,11.4667,124.4753,82.9,80,50,7.7,PH
22,Faanui,-16.4833,-151.75,72.3,88,100,11.63,PF
23,Riyadh,24.6877,46.7219,68.14,50,0,6.71,SA
24,Castro,-24.7911,-50.0119,62.82,94,100,3.85,BR
25,Gaomi,36.3833,119.7528,43.72,55,100,5.03,CN
26,Altamira,-3.2033,-52.2064,75.7,87,38,2.73,BR
27,Hilo,19.7297,-155.09,80.33,72,0,9.22,US
28,Flinders,-34.5833,150.8552,79.05,49,1,11.01,AU
29,Bluff,-46.6,168.3333,56.64,74,95,14.72,NZ
30,Longyearbyen,78.2186,15.6401,26.44,74,75,8.05,SJ
31,Aklavik,68.2191,-135.0107,0.81,94,67,1.97,CA
32,San Jose,37.3394,-121.895,59.25,50,20,8.95,US
33,Myitkyina,25.3833,97.4,62.13,71,0,2.44,MM
34,Mbanza-Ngungu,-5.25,14.8667,65.57,86,88,3.74,CD
35,Chuy,-33.6971,-53.4616,66.6,98,100,9.17,UY
36,Richards Bay,-28.783,32.0377,68.38,83,67,14.67,ZA
37,Mataura,-46.1927,168.8643,71.29,43,17,4.41,NZ
38,Atuona,-9.8,-139.0333,77.95,76,10,16.15,PF
39,Qasigiannguit,68.8193,-51.1922,34.05,75,7,4.97,GL
40,Parambu,-6.2111,-40.6944,79.59,59,32,6.31,BR
41,Petrivka,46.9695,30.9591,43.41,92,77,7.81,UA
42,Republic,37.12,-93.4802,35.56,47,0,9.22,US
43,Bredasdorp,-34.5322,20.0403,56.43,90,14,3.11,ZA
44,Rikitea,-23.1203,-134.9692,74.86,86,90,16.11,PF
45,Vao,-22.6667,167.4833,74.19,79,50,15.01,NC
46,Qaanaaq,77.484,-69.3632,-3.41,95,100,4.21,GL
47,Valparaiso,-33.0393,-71.6273,60.44,67,0,4.61,CL
48,Jardim,-21.4803,-56.1381,76.26,76,100,3.13,BR
49,Reykjavik,64.1355,-21.8954,46.81,91,100,10.51,IS
50,Lebu,-37.6167,-73.65,53.55,91,74,7.67,CL
51,Port Elizabeth,-33.918,25.5701,57.94,85,0,6.42,ZA
52,Puerto Ayora,-0.7393,-90.3518,69.55,88,42,7.0,EC
53,Upernavik,72.7868,-56.1549,20.05,84,100,14.2,GL
54,Sokoni,-6.4333,39.55,78.62,76,44,6.55,TZ
55,Saint-Philippe,-21.3585,55.7679,71.19,83,89,13.09,RE
56,Qui Nhon,13.7667,109.2333,77.9,87,41,8.1,VN
57,Seoul,37.5683,126.9778,51.19,71,100,5.93,KR
58,Maniitsoq,65.4167,-52.9,30.67,70,38,23.71,GL
59,East London,-33.0153,27.9116,61.14,74,5,8.01,ZA
60,Vaini,-21.2,-175.2,75.38,90,100,21.85,TO
61,Butaritari,3.0707,172.7902,80.91,70,51,10.27,KI
62,Araouane,18.9048,-3.5265,76.62,19,47,9.75,ML
63,Punta Arenas,-53.15,-70.9167,53.71,58,75,6.91,CL
64,Kango,0.1943,10.0951,73.0,99,100,1.7,GA
65,San Patricio,28.017,-97.5169,64.83,67,100,9.44,US
66,Rutland,43.6167,-73.0162,37.74,88,100,8.05,US
67,Sijunjung,-0.6876,100.9537,72.18,99,100,1.68,ID
68,Luanda,-8.8368,13.2343,73.9,76,98,8.59,AO
69,Bethel,41.3712,-73.414,44.94,61,0,8.05,US
70,Katangli,51.7102,143.2326,26.98,70,100,4.76,RU
71,Pevek,69.7008,170.3133,-11.34,92,100,1.34,RU
72,Matay,28.419,30.7792,64.24,76,0,10.11,EG
73,Saskylakh,71.9167,114.0833,-7.49,94,100,11.43,RU
74,Carnarvon,-24.8667,113.6333,77.72,29,0,11.52,AU
75,Saint George,37.1041,-113.5841,46.44,47,0,14.97,US
76,Caxito,-8.5785,13.6643,70.92,82,85,2.06,AO
77,Dikson,73.5069,80.5464,4.32,97,100,9.33,RU
78,Te Anau,-45.4167,167.7167,70.45,45,51,6.13,NZ
79,New Norfolk,-42.7826,147.0587,58.5,96,100,1.97,AU
80,Mount Gambier,-37.8333,140.7667,55.31,82,100,18.41,AU
81,Rochegda,62.8,43.25,27.37,80,16,8.5,RU
82,Cape Town,-33.9258,18.4232,62.91,75,87,8.01,ZA
83,Sangin,32.0728,64.8359,49.71,63,0,5.28,AF
84,Port Macquarie,-31.4333,152.9167,78.89,64,92,8.75,AU
85,Kaitangata,-46.2817,169.8464,59.23,67,61,13.96,NZ
86,Anito,12.4497,125.2886,84.22,77,47,10.22,PH
87,Ixtapa,20.7,-105.2,76.23,78,40,4.61,MX
88,Tuktoyaktuk,69.4541,-133.0374,11.5,97,69,6.69,CA
89,Busselton,-33.65,115.3333,61.5,46,0,10.38,AU
90,Ponta Do Sol,32.6667,-17.1,68.72,81,20,1.86,PT
91,Otjimbingwe,-22.35,16.1333,67.21,32,0,0.25,NA
92,Manyana,-23.4,21.7167,64.29,35,0,8.84,BW
93,Malazgirt,39.1427,42.5401,36.64,55,0,1.25,TR
94,Batagay-Alyta,67.8006,130.4114,-13.34,99,100,0.96,RU
95,Husavik,66.0449,-17.3389,46.04,90,100,17.0,IS
96,Ayutla,20.1167,-104.3333,63.43,67,6,4.97,MX
97,North Bend,43.4065,-124.2243,47.07,86,0,8.05,US
98,Sao Joao Da Barra,-21.6403,-41.0511,74.82,90,98,17.0,BR
99,Geraldton,-28.7667,114.6,75.61,35,0,14.97,AU
100,Hobart,-42.8794,147.3294,58.86,93,75,13.8,AU
101,Chipinge,-20.1883,32.6236,64.8,93,100,1.83,ZW
102,Pelym,61.0108,61.9978,11.03,92,100,10.38,RU
103,Port Hardy,50.6996,-127.4199,39.38,100,75,0.0,CA
104,Nikolskoye,59.7035,30.7861,34.81,85,16,3.96,RU
105,Saint-Joseph,-21.3667,55.6167,70.18,82,86,12.68,RE
106,Arraial Do Cabo,-22.9661,-42.0278,73.72,94,100,12.44,BR
107,Bar Harbor,44.3876,-68.2039,42.28,92,100,12.66,US
108,Mahebourg,-20.4081,57.7,72.25,79,56,4.34,MU
109,Bainbridge,47.6262,-122.5212,46.38,82,20,4.0,US
110,Saint-Pierre,-21.3393,55.4781,71.28,88,75,8.05,RE
111,Basco,20.4487,121.9702,81.34,79,41,20.65,PH
112,Yeniseysk,58.4497,92.1703,28.29,89,83,6.2,RU
113,Waitati,-45.75,170.5667,55.8,77,96,9.75,NZ
114,Mani,4.8172,-72.2886,74.55,93,80,5.23,CO
115,Lagoa,39.05,-27.9833,64.36,87,100,29.26,PT
116,Anloga,5.7947,0.8973,80.1,80,100,4.12,GH
117,Jawhar,2.7809,45.5005,74.44,88,1,4.32,SO
118,Ahipara,-35.1667,173.1667,67.12,62,0,10.38,NZ
119,Severo-Kurilsk,50.6789,156.125,32.02,93,100,38.86,RU
120,Isangel,-19.55,169.2667,81.12,74,15,8.39,VU
121,Gloversville,43.0528,-74.3438,37.26,86,100,9.22,US
122,Coihaique,-45.5752,-72.0662,54.21,71,0,2.3,CL
123,Merauke,-8.4667,140.3333,86.58,64,94,8.19,ID
124,Ruwi,23.5996,58.5507,76.69,50,0,6.11,OM
125,Cayenne,4.9333,-52.3333,77.04,94,75,2.3,GF
126,Ilulissat,69.2167,-51.1,33.82,60,8,6.91,GL
127,Davila,18.4726,120.5763,84.18,74,97,17.98,PH
128,Victoria,22.2855,114.1577,78.19,78,81,11.01,HK
129,Talnakh,69.4865,88.3972,-24.02,82,19,3.56,RU
130,Nome,64.5011,-165.4064,21.27,63,0,8.05,US
131,Pontes E Lacerda,-15.2261,-59.3353,81.73,52,67,3.53,BR
132,Muros,42.7762,-9.0603,54.68,93,87,8.66,ES
133,Kuala Kedah,6.1,100.3,78.08,89,100,7.34,MY
134,Umm Lajj,25.0213,37.2685,78.15,56,0,7.63,SA
135,Agirish,61.9247,63.0231,6.75,94,100,8.39,RU
136,Ahuimanu,21.4447,-157.8378,83.91,64,40,12.66,US
137,Marienburg,54.0359,19.0266,52.84,76,100,6.04,PL
138,Reforma,18.1,-91.0167,72.46,89,2,6.26,MX
139,Beipiao,41.7919,120.7792,37.11,46,0,4.65,CN
140,Roald,62.5833,6.1333,52.75,93,19,5.75,NO
141,Sabha,27.0377,14.4283,59.67,39,0,5.77,LY
142,Alugan,12.2188,125.4808,82.74,82,31,10.94,PH
143,Ontario,34.0633,-117.6509,63.05,45,20,6.91,US
144,Fort Nelson,58.8053,-122.7002,24.94,89,36,4.0,CA
145,Khatanga,71.9667,102.5,-20.36,98,100,7.61,RU
146,Yellowknife,62.456,-114.3525,14.72,95,19,9.01,CA
147,Sao Miguel Do Araguaia,-13.275,-50.1628,78.19,59,4,4.09,BR
148,Nishihara,26.1842,127.7558,76.28,65,75,17.27,JP
149,Dingle,10.9995,122.6711,82.96,80,87,13.76,PH
150,Tommot,58.9564,126.2925,16.21,90,100,1.7,RU
151,Thayetmyo,19.3167,95.1833,71.04,79,19,5.44,MM
152,Lulea,65.5842,22.1547,24.87,93,18,5.75,SE
153,Makakilo City,21.3469,-158.0858,82.72,55,20,12.66,US
154,Alberton,46.8168,-64.0654,44.51,91,100,17.22,CA
155,Port Alfred,-33.5906,26.891,55.18,89,8,9.26,ZA
156,Cabo San Lucas,22.8909,-109.9124,76.51,67,0,3.44,MX
157,Pyinmana,19.7333,96.2167,70.88,80,10,3.27,MM
158,Harper,4.375,-7.7169,77.43,88,37,7.81,LR
159,Maxixe,-23.8597,35.3472,73.33,94,100,1.88,MZ
160,Placido De Castro,-10.3353,-67.1856,82.94,54,90,3.31,BR
161,Lewistown,40.5992,-77.5714,40.19,79,40,5.75,US
162,Provideniya,64.3833,-173.3,15.91,53,0,7.0,RU
163,Kandrian,-6.2167,149.55,86.16,67,98,5.37,PG
164,Aswan,24.0934,32.907,69.67,32,7,10.27,EG
165,Barkhan,29.8977,69.5256,57.24,60,28,0.89,PK
166,Lorengau,-2.0226,147.2712,82.67,76,100,7.63,PG
167,Nizwa,22.9333,57.5333,71.2,46,0,3.89,OM
168,Lipin Bor,60.2622,37.9763,30.22,77,29,13.15,RU
169,Sobolevo,54.4299,31.8996,40.19,70,100,10.74,RU
170,Miraflores,19.2167,-98.8083,66.87,86,11,4.79,MX
171,Klaksvik,62.2266,-6.589,50.92,97,100,17.16,FO
172,Ingham,42.6,-84.3833,33.98,72,12,6.73,US
173,Ribeira Grande,38.5167,-28.7,66.78,88,100,21.0,PT
174,La Paz,-16.5,-68.15,49.82,33,0,2.66,BO
175,Laguna,38.421,-121.4238,59.09,44,0,5.75,US
176,Tulum,20.2167,-87.4667,77.76,76,94,7.36,MX
177,Tiksi,71.6872,128.8694,-8.52,99,100,8.84,RU
178,Tual,-5.6667,132.75,84.42,70,100,9.91,ID
179,Mangan,27.5167,88.5333,58.35,45,0,5.61,IN
180,Mana,5.6592,-53.7767,78.6,86,100,11.36,GF
181,Kavaratti,10.5669,72.642,80.74,79,94,10.31,IN
182,Vila Velha,-20.3297,-40.2925,76.95,88,75,11.5,BR
183,Lumeje,-11.55,20.7833,65.68,91,82,4.18,AO
184,Esperance,-33.8667,121.9,57.04,59,37,11.32,AU
185,Olafsvik,64.8945,-23.7142,44.94,93,100,10.54,IS
186,Manono,-7.3,27.4167,65.66,97,97,1.01,CD
187,Sao Sebastiao,-23.76,-45.4097,71.2,92,67,6.08,BR
188,Katsuura,35.1333,140.3,62.62,56,89,23.17,JP
189,Lavrentiya,65.5833,-171.0,15.15,67,0,5.32,RU
190,Sainte-Marie,-20.8968,55.5496,71.76,85,75,9.22,RE
191,Khorramshahr,30.4397,48.1664,64.36,82,1,0.0,IR
192,Sambava,-14.2667,50.1667,68.97,89,8,5.99,MG
193,Capitan Bado,-23.2667,-55.5333,66.38,97,33,3.53,PY
194,Henties Bay,-22.116,14.2845,57.11,93,1,4.27,NA
195,Brae,60.3964,-1.353,52.48,92,100,21.47,GB
196,Okhotsk,59.3833,143.3,8.69,75,26,11.54,RU
197,Hobyo,5.3505,48.5268,79.65,76,5,10.85,SO
198,Ginir,7.1333,40.7,53.26,78,0,3.36,ET
199,Agua Prieta,31.3,-109.5667,60.37,36,0,16.44,MX
200,Lasa,46.6166,10.7002,47.28,98,100,4.9,IT
201,Ancud,-41.8697,-73.8203,53.15,91,100,14.74,CL
202,Avarua,-21.2078,-159.775,77.05,57,75,12.66,CK
203,Yuanping,38.7153,112.7575,39.18,43,2,1.81,CN
204,Cherskiy,68.75,161.3,-5.24,98,100,3.87,RU
205,Palauig,15.435,119.9045,85.51,66,89,1.95,PH
206,Orchard Homes,46.8633,-114.0484,28.54,77,100,11.5,US
207,Hermanus,-34.4187,19.2345,53.8,86,19,7.4,ZA
208,Hasaki,35.7333,140.8333,63.0,60,95,25.01,JP
209,Tilichiki,60.4667,166.1,20.91,96,100,8.14,RU
210,Valdivia,-39.8142,-73.2459,57.29,90,100,3.91,CL
211,Santarem,-2.4431,-54.7083,84.33,79,0,5.75,BR
212,Tezu,27.9167,96.1667,63.21,53,0,3.44,IN
213,Taoudenni,22.6783,-3.9836,74.62,18,7,11.92,ML
214,Grand Gaube,-20.0064,57.6608,72.37,70,16,1.99,MU
215,Pakxe,15.1167,105.7833,78.94,83,40,2.3,LA
216,Cidreira,-30.1811,-50.2056,68.2,96,100,19.86,BR
217,Catarman,12.4989,124.6377,83.25,82,76,10.29,PH
218,Kavieng,-2.5744,150.7967,84.88,70,100,13.98,PG
219,Mattru,7.6244,-11.8332,73.62,97,100,2.33,SL
220,Alamosa,37.4695,-105.87,42.78,36,100,10.36,US
221,Broken Hill,-31.95,141.4333,63.79,55,95,25.61,AU
222,Conakry,9.538,-13.6773,78.87,89,40,4.61,GN
223,Lucapa,-8.4192,20.7447,65.35,98,100,2.42,AO
224,Los Llanos De Aridane,28.6585,-17.9182,68.13,51,20,8.05,ES
225,Tura,25.5198,90.2201,61.84,87,0,3.74,IN
226,Iqaluit,63.7506,-68.5145,17.33,85,75,3.44,CA
227,The Valley,18.217,-63.0578,81.1,89,20,13.8,AI
228,Yashkul,46.1711,45.3435,48.06,65,100,22.48,RU
229,Yenangyaung,20.4667,94.8833,71.58,72,0,6.11,MM
230,Kruisfontein,-34.0033,24.7314,54.72,79,0,5.73,ZA
231,Guerrero Negro,27.9769,-114.0611,62.56,65,0,16.71,MX
232,Tabou,4.423,-7.3528,78.01,87,68,6.73,CI
233,Bathsheba,13.2167,-59.5167,79.41,94,75,13.8,BB
234,Margate,51.3813,1.3862,54.9,90,6,3.0,GB
235,Kungurtug,50.5994,97.5228,10.47,92,79,2.26,RU
236,Liepaja,56.5419,21.0367,31.98,93,0,3.44,LV
237,Tasiilaq,65.6145,-37.6368,39.36,94,100,33.04,GL
238,Den Helder,52.9599,4.7593,42.78,93,0,12.66,NL
239,Sao Gabriel Da Cachoeira,-0.1303,-67.0892,75.61,87,99,0.51,BR
240,Bonavista,48.6499,-53.1147,32.56,72,91,4.9,CA
241,Hay River,60.8156,-115.7999,23.18,91,10,7.54,CA
242,Yar-Sale,66.8333,70.8333,0.48,90,100,9.42,RU
243,Sungaipenuh,-2.0833,101.3833,64.83,99,100,1.19,ID
244,Jacqueville,5.2052,-4.4146,79.56,83,97,6.85,CI
245,Auki,-8.7676,160.7034,85.98,62,38,4.21,SB
246,Kutum,14.2,24.6667,61.21,28,2,6.64,SD
247,Chara,56.9064,118.2631,9.32,75,100,0.92,RU
248,Leningradskiy,69.3833,178.4167,-11.22,98,43,6.24,RU
249,Bambous Virieux,-20.3428,57.7575,72.21,83,75,3.44,MU
250,Bindura,-17.3019,31.3306,66.45,85,100,0.98,ZW
251,Hukuntsi,-24.0,21.75,64.65,30,0,10.42,BW
252,Narsaq,60.9167,-46.05,50.22,62,100,8.32,GL
253,Uvarovka,55.5278,35.6061,35.71,76,97,11.9,RU
254,Menongue,-14.6585,17.691,67.03,48,24,3.98,AO
255,Kroya,-7.6331,109.2461,80.82,82,87,0.89,ID
256,Malinovoye Ozero,51.6753,79.7825,32.63,71,100,17.72,RU
257,Kupang,-10.1667,123.5833,85.62,69,100,4.5,ID
258,Liverpool,53.4106,-2.9779,52.75,95,100,6.91,GB
259,Quatre Cocos,-20.2078,57.7625,72.09,76,47,3.53,MU
260,Itaituba,-4.2761,-55.9836,80.04,68,56,2.8,BR
261,Kodiak,57.79,-152.4072,42.31,61,40,3.44,US
262,Roebourne,-20.7833,117.1333,82.78,46,0,12.8,AU
263,Hamilton,39.1834,-84.5333,37.09,73,100,4.61,US
264,Porlamar,10.958,-63.8491,80.49,85,100,13.78,VE
265,Northam,51.0333,-4.2167,57.38,94,85,13.8,GB
266,Clyde River,70.4692,-68.5914,-0.17,85,100,12.66,CA
267,Findlay,41.0442,-83.6499,36.25,78,100,5.75,US
268,Arcata,40.8665,-124.0828,51.19,83,0,3.44,US
269,Sokolo,14.7328,-6.1219,83.68,25,84,7.74,ML
270,Mar Del Plata,-38.0023,-57.5575,64.87,98,100,6.91,AR
271,Khash,28.2211,61.2158,52.77,64,27,4.88,IR
272,Odweyne,9.4092,45.064,66.11,33,0,12.19,SO
273,Austin,30.2672,-97.7431,53.83,46,75,8.01,US
274,Gannan,47.9147,123.5031,26.74,56,89,3.24,CN
275,Baykit,61.67,96.37,-0.13,96,100,9.46,RU
276,Lagunas,-5.2269,-75.6753,81.79,63,100,4.12,PE
277,Kahului,20.8947,-156.47,84.22,66,40,21.85,US
278,Mollendo,-17.0231,-72.0147,64.24,82,54,7.02,PE
279,Port Blair,11.6667,92.75,77.04,88,40,2.3,IN
280,Narasannapeta,18.4167,84.05,68.11,79,1,6.38,IN
281,Lenine,45.2986,35.7771,47.16,91,29,11.18,UA
282,Kabompo,-13.5927,24.2008,64.89,96,100,5.41,ZM
283,Avera,33.194,-82.5271,44.11,48,0,6.69,US
284,Deputatskiy,69.3,139.9,-24.05,96,99,4.65,RU
285,Alofi,-19.0595,-169.9187,80.49,65,81,14.97,NU
286,Waipawa,-41.4122,175.5153,60.69,55,5,8.41,NZ
287,Hearst,49.6835,-83.6665,23.25,93,100,10.76,CA
288,Makat,47.6469,53.3463,42.93,69,92,23.55,KZ
289,Hitiaa,-17.6,-149.3,75.22,81,100,4.47,PF
290,Tshela,-4.9833,12.9333,68.76,95,100,0.51,CD
291,Manavalakurichi,8.1333,77.3,77.2,87,100,3.6,IN
292,Okha,53.5739,142.9478,21.65,77,100,6.04,RU
293,Skovorodino,53.9833,123.9167,14.45,91,100,1.25,RU
294,Tashtagol,52.7657,87.8894,23.32,94,100,1.3,RU
295,Coquimbo,-29.9533,-71.3436,58.73,82,0,2.3,CL
296,Anadyr,64.75,177.4833,10.9,92,0,8.95,RU
297,Thompson,55.7435,-97.8558,3.6,98,40,3.85,CA
298,Ngunguru,-35.6167,174.5,64.87,68,0,14.25,NZ
299,Saint Anthony,45.0205,-93.218,27.25,63,40,5.75,US
300,Tulsipur,28.131,82.2973,55.92,62,12,4.54,NP
301,Pedernales,18.0384,-71.744,80.13,76,98,4.47,DO
302,Manuk Mangkaw,4.8,119.85,82.62,77,77,7.56,PH
303,Ostrovnoy,68.0531,39.5131,30.74,85,100,13.82,RU
304,Biak,-0.9131,122.8766,83.46,69,99,3.02,ID
305,Santa Cruz Del Norte,23.1539,-81.9236,78.49,76,4,12.15,CU
306,Marzuq,14.4,46.4667,61.23,41,0,1.43,YE
307,Nemuro,43.3236,145.575,42.33,64,94,31.88,JP
308,Milas,37.3164,27.7839,45.75,87,0,3.44,TR
309,Savannah Bight,16.45,-85.85,81.63,74,55,14.72,HN
310,Ambon,-3.6954,128.1814,84.34,79,40,3.44,ID
311,Vardo,70.3705,31.1107,31.98,74,75,6.91,NO
312,Saposoa,-6.934,-76.7716,80.08,72,100,2.48,PE
313,Gat,31.61,34.7642,71.4,70,41,5.7,IL
314,Pimentel,-6.8367,-79.9342,63.01,85,98,13.33,PE
315,Pangnirtung,66.1451,-65.7125,5.59,89,49,6.24,CA
316,Trat,12.5,102.5,78.75,88,93,8.97,TH
317,Akdepe,42.0551,59.3788,53.69,60,100,24.54,TM
318,Boyolangu,-8.1181,111.8935,81.48,81,100,3.02,ID
319,Poya,-21.35,165.15,81.84,63,17,9.98,NC
320,Mangrol,21.1167,70.1167,75.2,57,2,6.91,IN
321,Dzheguta,43.9671,42.0426,37.47,83,25,4.45,RU
322,Beringovskiy,63.05,179.3167,17.11,79,100,6.08,RU
323,Pochutla,15.7432,-96.4661,79.83,87,10,2.51,MX
324,Monrovia,6.3005,-10.7969,76.77,88,100,4.54,LR
325,Shenxian,36.2411,115.6672,45.86,46,100,7.67,CN
326,San Quintin,30.4833,-115.95,60.53,66,0,12.95,MX
327,Mayumba,-3.432,10.6554,76.44,81,100,7.0,GA
328,Berlevag,70.8578,29.0864,33.8,86,40,12.66,NO
329,Artvin,41.1667,41.8333,44.67,89,87,1.03,TR
330,Shouguang,36.88,118.7375,44.58,42,100,5.46,CN
331,Marquard,-28.6645,27.4305,51.8,63,0,5.82,ZA
332,Tuatapere,-46.1333,167.6833,69.58,50,100,4.59,NZ
333,Souillac,-20.5167,57.5167,71.98,83,75,3.44,MU
334,Dali,25.7,100.1833,52.09,70,4,1.77,CN
335,Tarko-Sale,64.9225,77.785,-11.94,85,78,10.38,RU
336,Norman Wells,65.282,-126.8329,12.24,85,40,6.91,CA
337,Sao Filipe,14.8961,-24.4956,76.33,73,91,10.0,CV
338,Port Augusta,-32.5,137.7667,65.48,43,68,17.67,AU
339,Xining,36.6167,101.7667,30.78,72,100,1.86,CN
340,Padang,-0.9492,100.3543,77.05,93,100,3.58,ID
341,Grindavik,63.8424,-22.4338,45.07,81,75,9.22,IS
342,Kaabong,3.4836,34.1492,66.33,71,100,8.59,UG
343,Teknaf,20.8624,92.3058,69.3,76,0,5.73,BD
344,Otane,-39.8833,176.6333,64.0,66,82,5.88,NZ
345,Totma,59.9747,42.7642,26.33,69,89,13.47,RU
346,Ampanihy,-24.7,44.75,72.16,75,0,4.14,MG
347,Airai,-8.9266,125.4092,73.22,65,100,2.46,TL
348,Ponta Delgada,37.7333,-25.6667,65.12,72,75,16.11,PT
349,Qandala,11.472,49.8728,75.96,64,0,4.52,SO
350,Lompoc,34.6391,-120.4579,60.94,79,0,9.22,US
351,Comodoro Rivadavia,-45.8667,-67.5,53.46,87,0,5.75,AR
352,Vangaindrano,-23.35,47.6,71.8,90,100,6.11,MG
353,Walvis Bay,-22.9575,14.5053,59.09,94,0,10.36,NA
354,Antalaha,-14.9003,50.2788,71.46,74,96,5.12,MG
355,Egvekinot,66.3167,-179.1667,-2.45,86,50,2.3,RU
356,Shingu,33.7333,135.9833,61.52,55,0,7.2,JP
357,Moroni,-11.7022,43.2551,75.13,82,0,3.04,KM
358,Santa Cruz,-17.8,-63.1667,80.06,78,75,6.91,BO
359,Zhangye,38.9342,100.4517,33.64,40,0,4.54,CN
360,Slave Lake,55.2834,-114.769,33.78,69,75,9.22,CA
361,Basse,52.5518,9.5069,45.25,94,100,8.05,DE
362,Alanya,36.5438,31.9998,51.93,35,0,7.18,TR
363,Manado,1.487,124.8455,88.57,70,40,2.3,ID
364,Ligayan,4.6533,119.4706,82.47,78,99,6.6,PH
365,Didwana,27.4,74.5667,66.4,33,4,6.6,IN
366,Chicama,-7.8447,-79.1469,61.34,80,98,4.94,PE
367,Wajir,1.7471,40.0573,77.45,74,99,13.02,KE
368,Latung,5.5,120.8833,82.58,73,100,3.58,PH
369,Itupiranga,-5.1347,-49.3267,82.72,80,55,3.74,BR
370,Porto Nacional,-10.7081,-48.4172,80.6,65,16,0.69,BR
371,Cap Malheureux,-19.9842,57.6142,72.46,70,11,1.01,MU
372,Emerald,-23.5333,148.1667,85.33,51,10,8.05,AU
373,Leh,34.1667,77.5833,25.05,83,100,4.25,IN
374,Cumra,37.5732,32.7745,35.74,54,0,3.69,TR
375,Malacky,48.436,17.0219,44.02,99,0,7.9,SK
376,Priamurskiy,48.5217,134.9028,23.41,56,96,9.98,RU
377,Port Hawkesbury,45.6169,-61.3485,46.58,99,100,11.01,CA
378,Suihua,46.6406,126.9969,25.3,40,100,10.63,CN
379,Llanes,43.4198,-4.7549,62.89,84,100,12.59,ES
380,Manokwari,-0.8667,134.0833,79.12,87,100,1.34,ID
381,Nsanje,-16.92,35.262,76.68,71,97,3.09,MW
382,Namibe,-15.1961,12.1522,64.98,75,19,8.14,AO
383,Salalah,17.0151,54.0924,75.29,64,0,2.3,OM
384,Nikolayevsk-Na-Amure,53.1406,140.73,20.66,65,14,2.98,RU
385,Kieta,-6.2167,155.6333,85.73,66,70,5.37,PG
386,Nhulunbuy,-12.2333,136.7667,90.21,62,40,12.66,AU
387,Ust-Ishim,57.6935,71.1665,32.67,98,100,8.19,RU
388,Simbahan,6.3032,120.5836,83.25,76,100,5.84,PH
389,Muriti,-1.9833,32.9167,71.01,70,45,4.94,TZ
390,Udachnyy,66.4167,112.4,-24.56,67,100,4.56,RU
391,Ambilobe,-13.2,49.05,71.56,85,3,3.8,MG
392,College,64.8569,-147.8028,37.72,80,100,6.91,US
393,Vila Franca Do Campo,37.7167,-25.4333,64.81,79,100,12.48,PT
394,Constitucion,-35.3333,-72.4167,53.46,90,2,7.23,CL
395,Algiers,36.7525,3.042,53.42,76,0,4.61,DZ
396,Mountain Home,43.133,-115.6912,33.28,69,0,9.22,US
397,Bandarbeyla,9.4942,50.8122,77.0,72,4,11.14,SO
398,Kitimat,54.0524,-128.6534,34.18,99,100,3.02,CA
399,Turinskaya Sloboda,57.6232,64.3858,30.43,97,100,12.28,RU
400,Havre-Saint-Pierre,50.2334,-63.5986,30.2,80,100,11.5,CA
401,Quarai,-30.3875,-56.4514,64.29,98,54,5.82,BR
402,Trinidad,-14.8333,-64.9,81.28,60,100,3.67,BO
403,Lima,-12.0432,-77.0282,63.9,82,100,5.75,PE
404,Fairbanks,64.8378,-147.7164,37.74,82,0,6.91,US
405,Beira,-19.8436,34.8389,80.69,74,20,2.48,MZ
406,Halifax,44.6453,-63.5724,49.21,96,100,17.27,CA
407,Kokstad,-30.5472,29.4241,48.67,94,59,1.97,ZA
408,Champerico,14.3,-91.9167,79.86,79,68,5.01,GT
409,Codrington,-38.2667,141.9667,54.43,89,100,24.43,AU
410,Sola,-13.8833,167.55,81.09,73,0,4.83,VU
411,Tres Arroyos,-38.3739,-60.2798,56.8,98,100,11.12,AR
412,Koumac,-20.5667,164.2833,78.48,73,53,7.52,NC
413,Blagoyevo,63.3667,47.9167,21.65,84,100,12.91,RU
414,Inhambane,-23.865,35.3833,73.51,94,100,2.3,MZ
415,Tromso,69.6496,18.957,41.02,87,100,12.66,NO
416,Komsomolskiy,40.4272,71.7189,32.72,93,100,2.3,UZ
417,Kigorobya,1.6162,31.3089,66.16,88,91,1.79,UG
418,Najran,17.4924,44.1277,59.25,45,0,0.22,SA
419,Mount Isa,-20.7333,139.5,83.97,61,40,6.91,AU
420,Marfino,55.7028,37.3822,34.09,81,75,15.66,RU
421,Goderich,43.7501,-81.7165,37.9,64,100,16.11,CA
422,Eureka,40.8021,-124.1637,49.93,90,79,1.01,US
423,Malanje,-9.5402,16.341,60.62,60,95,4.05,AO
424,Tagab,34.855,69.6492,43.45,93,100,2.28,AF
425,Muli,2.9167,73.5667,78.94,82,100,19.66,MV
426,Hofn,64.2539,-15.2082,48.07,96,100,17.52,IS
427,Saint-Georges,12.0564,-61.7485,82.08,83,75,11.5,GD
428,Sao Jose Da Coroa Grande,-8.8978,-35.1478,76.82,86,45,5.55,BR
429,Doka,13.5167,35.7667,76.24,46,16,3.38,SD
430,Cartagena,10.3997,-75.5144,80.22,83,40,2.3,CO
431,Vostok,46.4856,135.8833,22.75,74,97,2.84,RU
432,Patti,31.2808,74.8572,62.67,34,86,6.55,IN
433,Omboue,-1.5746,9.2618,75.4,90,100,7.83,GA
434,Xichang,27.8964,102.2634,52.02,77,16,1.41,CN
435,Popondetta,-8.7537,148.2534,91.4,51,100,4.18,PG
436,Siniscola,40.5719,9.6922,51.35,89,2,5.86,IT
437,Andenes,69.3143,16.1194,44.58,76,100,11.5,NO
438,Canita,9.2097,-78.8811,74.66,97,100,1.99,PA
439,Swellendam,-34.0226,20.4417,57.16,88,4,5.3,ZA
440,Jalingo,8.8833,11.3667,76.57,37,4,5.41,NG
441,Santa Barbara,34.7333,-120.0343,55.99,69,0,14.97,US
442,Rocha,-34.4833,-54.3333,65.75,98,100,5.84,UY
443,Barhi,23.9,80.8,56.7,55,0,2.37,IN
444,Mandalgovi,45.7625,106.2708,25.02,33,95,7.81,MN
445,Ballina,-28.8667,153.5667,80.02,66,98,11.14,AU
446,Port Moresby,-9.4431,147.1797,87.22,66,75,11.5,PG
447,Necochea,-38.5473,-58.7368,59.79,99,100,9.42,AR
448,Zyryanka,65.75,150.85,-23.98,94,25,6.73,RU
449,Cockburn Town,21.4612,-71.1419,80.83,75,5,10.76,TC
450,Ola,59.5833,151.2833,8.19,91,98,8.95,RU
451,Nabire,-3.3667,135.4833,78.03,91,100,1.5,ID
452,Gizo,-8.103,156.8419,85.28,66,99,5.75,SB
453,Wencheng,33.0559,113.7978,48.74,59,75,3.74,CN
454,Chor,25.5167,69.7667,71.42,67,0,8.99,PK
455,Faya,18.3851,42.4509,54.12,72,8,0.85,SA
456,Karabash,55.4808,60.2157,30.69,98,100,10.29,RU
457,Suba,10.8438,121.0102,83.57,79,93,21.94,PH
458,Caravelas,-17.7125,-39.2481,76.14,87,100,9.37,BR
459,Haverfordwest,51.8017,-4.9691,57.06,94,100,5.99,GB
460,Zapolyarnyy,69.4154,30.8136,27.68,97,100,6.87,RU
461,Tougue,11.4667,-11.6,70.07,56,56,1.68,GN
462,Thinadhoo,0.5333,72.9333,81.84,73,100,14.85,MV
463,Soyo,-6.1349,12.3689,75.65,79,92,6.4,AO
464,Vestmannaeyjar,63.4427,-20.2734,48.11,86,100,20.42,IS
465,Bagdarin,54.4333,113.6,10.71,81,51,2.19,RU
466,Fortuna,40.5982,-124.1573,49.98,84,0,6.91,US
467,Mizdah,31.4451,12.9801,55.99,49,5,1.03,LY
468,San Jeronimo,-11.9472,-75.2829,54.7,70,100,5.32,PE
469,Ayotzintepec,17.6667,-96.1333,70.9,98,82,1.05,MX
470,Poum,-20.2333,164.0167,76.35,80,43,7.27,NC
471,Gonaives,19.45,-72.6833,77.07,84,96,5.84,HT
472,Vanimo,-2.6741,141.3028,82.8,82,94,1.07,PG
473,George Town,5.4112,100.3354,80.53,92,20,4.61,MY
474,San Policarpo,12.1791,125.5072,82.87,82,42,11.56,PH
475,Shimoda,34.6667,138.95,62.96,65,88,17.29,JP
476,Tecozautla,20.5333,-99.6333,64.92,69,0,8.01,MX
477,Parang,7.3704,124.2697,83.82,67,98,4.68,PH
478,Constantine,36.365,6.6147,49.41,71,0,0.0,DZ
479,Camana,-16.6228,-72.7111,64.99,83,12,6.82,PE
480,Sur,22.5667,59.5289,78.89,45,0,6.91,OM
481,Torbay,47.6666,-52.7314,36.28,88,75,2.3,CA
482,Aksarka,66.5606,67.7975,-1.01,91,100,8.12,RU
483,Yaan,7.3833,8.5667,75.16,43,93,1.41,NG
484,Mizan Teferi,6.9833,35.5833,60.51,91,91,2.33,ET
485,Dunedin,-45.8742,170.5036,55.8,77,95,11.99,NZ
486,Rio Grande City,26.3798,-98.8203,58.1,64,100,10.16,US
487,Susangerd,31.5608,48.1831,68.04,35,0,7.49,IR
488,Pisco,-13.7,-76.2167,64.45,82,100,12.66,PE
489,Kalianget,-7.05,113.9333,84.81,69,95,3.22,ID
490,Maputo,-25.9653,32.5892,67.68,88,40,14.97,MZ
491,Hami,42.8,93.45,32.45,48,5,2.37,CN
492,Honningsvag,70.9821,25.9704,33.55,86,40,3.44,NO
493,Sitka,57.0531,-135.33,48.09,81,100,8.05,US
494,Black River,18.0264,-77.8487,78.53,82,2,4.23,JM
495,Matagami,49.7502,-77.6328,21.31,93,100,4.61,CA
496,Bethanien,-26.502,17.1583,59.85,33,0,3.02,NA
497,Riohacha,11.5444,-72.9072,76.51,88,79,4.23,CO
498,Papara,-3.9839,-38.7273,79.68,89,55,4.29,BR
499,Rapid Valley,44.0625,-103.1463,24.46,78,100,21.85,US
500,Sarangani,5.4033,125.4636,83.52,75,99,19.28,PH
501,Felipe Carrillo Puerto,19.5833,-88.05,74.46,82,28,3.65,MX
502,Korla,41.7597,86.1469,31.51,63,0,1.5,CN
503,Rensvik,63.1,7.8167,48.47,76,75,5.75,NO
504,Port Lincoln,-34.7333,135.8667,58.24,63,100,18.45,AU
505,Heihe,50.2441,127.4902,25.38,78,98,5.01,CN
506,Askiz,53.1319,90.5264,31.66,77,100,5.86,RU
507,Lively,46.4334,-81.1498,27.01,71,8,7.94,CA
508,Kloulklubed,7.0419,134.2556,84.7,76,54,11.7,PW
509,Kannangad,12.3081,75.1063,75.07,89,92,7.05,IN
510,Sibu,2.3,111.8167,75.51,100,40,0.0,MY
511,Santa Cruz De Las Flores,20.4833,-103.5,73.56,44,8,4.41,MX
512,Tomatlan,19.9333,-105.25,70.77,93,100,2.57,MX
513,Naze,28.3667,129.4833,67.12,70,54,14.83,JP
514,Luderitz,-26.6481,15.1594,60.13,74,0,12.68,NA
515,Royan,45.6285,-1.0281,57.42,69,94,11.88,FR
516,Nanortalik,60.1432,-45.2371,34.18,75,100,14.18,GL
517,Atar,20.5169,-13.0499,76.48,13,6,8.57,MR
518,Chernyshevskiy,63.0128,112.4714,-30.46,98,8,2.98,RU
519,Shilong,23.1123,113.8425,77.67,68,48,3.47,CN
520,Ust-Ilimsk,58.0006,102.6619,30.11,96,100,7.85,RU
521,Sanming,26.2486,117.6186,69.28,79,88,1.95,CN
522,Jalu,29.0331,21.5482,62.22,43,89,7.0,LY
523,Noumea,-22.2763,166.4572,84.18,73,70,12.41,NC
524,Nyakahanga,-1.6033,31.1414,57.72,95,96,0.87,TZ
525,Puerto Escondido,15.85,-97.0667,81.43,65,40,5.75,MX
526,Namatanai,-3.6667,152.4333,86.25,62,100,11.34,PG
527,Huejuquilla El Alto,22.6,-103.8667,58.86,48,7,4.61,MX
528,Puerto Ayacucho,5.6639,-67.6236,78.17,84,70,4.25,VE
529,Biltine,14.5333,20.9167,72.03,23,1,8.01,TD
530,Sovetskoye,52.2861,85.4131,28.04,82,100,4.79,RU
531,Benjamin Constant,-4.3831,-70.0311,77.13,80,96,2.46,BR
532,Puerto Cabezas,14.0351,-83.3888,76.57,90,81,11.12,NI
533,Sant Julia De Loria,42.4625,1.4825,50.32,79,23,1.05,AD
534,Santa Rosa,14.3122,121.1114,89.1,72,74,13.96,PH
535,Dioknisi,41.6293,42.3917,41.7,95,100,5.39,GE
536,Vilyuysk,63.7553,121.6247,-18.42,98,100,5.12,RU
537,Petersburg,37.2279,-77.4019,44.2,54,0,5.75,US
538,Pacific Grove,36.6177,-121.9166,57.02,75,0,8.01,US
539,Alice Springs,-23.7,133.8833,74.75,27,0,16.11,AU
540,Meulaboh,4.1363,96.1285,75.16,92,100,4.34,ID
541,Huarmey,-10.0681,-78.1522,64.4,83,73,8.21,PE
542,Assomada,15.1,-23.6833,71.15,80,94,11.52,CV
543,Poronaysk,49.2167,143.1167,33.28,44,99,10.8,RU
544,Alekseyevsk,57.8406,108.3492,25.56,97,100,2.51,RU
545,Banda Aceh,5.5577,95.3222,76.5,87,100,1.54,ID
546,Darnah,32.767,22.6367,63.16,67,0,3.38,LY
547,Bauchi,10.5,10.0,67.23,32,100,3.49,NG
548,Canton,23.1167,113.25,76.95,55,47,4.72,CN
549,Gondar,12.6,37.4667,56.37,68,7,3.49,ET
550,Carballo,43.213,-8.691,53.87,94,97,4.56,ES
551,Whitianga,-36.8333,175.7,67.33,67,28,6.38,NZ
552,Carahue,-38.7,-73.1667,51.33,89,70,3.27,CL
553,Asau,46.4333,26.4,42.28,74,6,2.24,RO
554,Bambanglipuro,-7.95,110.2833,79.81,83,100,2.3,ID
555,Adrar,20.5022,-10.0711,71.24,16,5,9.73,MR
556,Olinda,-8.0089,-34.8553,80.33,74,75,6.91,BR
557,Varhaug,58.6147,5.6457,50.68,85,100,15.17,NO
558,Ayorou,14.7308,0.9174,78.96,21,43,10.8,NE
559,Katsuyama,36.0617,136.501,55.76,74,53,6.11,JP
560,Iztapa,13.9333,-90.7075,78.48,86,100,3.89,GT
561,Srednekolymsk,67.45,153.6833,-23.64,96,71,5.93,RU
562,Kalundborg,55.6795,11.0886,51.35,94,100,13.35,DK
563,Yerbogachen,61.2767,108.0108,-17.03,91,100,5.86,RU
564,Verkhnechusovskiye Gorodki,58.1671,57.1086,24.84,75,100,9.78,RU
565,Jining,35.405,116.5814,45.99,35,76,2.17,CN
566,Qaqortoq,60.7167,-46.0333,34.38,72,100,3.83,GL
567,Srandakan,-7.9386,110.2506,79.77,83,100,2.1,ID
568,Coari,-4.085,-63.1414,80.8,73,94,0.45,BR
569,Sioux Lookout,50.1001,-91.917,19.47,86,100,2.3,CA
570,Entre Rios,-11.9419,-38.0844,70.29,98,86,3.13,BR
571,Vaasa,63.096,21.6158,32.02,100,100,3.44,FI
572,Ambovombe,-25.1667,46.0833,68.83,88,1,9.1,MG
573,Lakhimpur,27.95,80.7667,60.57,67,95,3.15,IN
574,Namie,37.4833,141.0,59.99,56,100,16.08,JP
575,Kudahuvadhoo,2.6708,72.8944,79.3,82,100,14.05,MV
576,Bilibino,68.0546,166.4372,1.45,97,100,1.66,RU
577,Chester,40.1254,-75.8749,40.01,67,0,10.36,US
578,Aleksandrovsk-Sakhalinskiy,50.8975,142.1561,26.94,65,100,2.17,RU
579,Taksimo,56.3444,114.8794,5.94,89,100,0.18,RU
580,Vikulovo,56.8167,70.6107,32.32,98,100,12.66,RU
581,Minnedosa,50.2453,-99.8436,10.96,98,100,4.38,CA
582,Jaciara,-15.9653,-54.9683,75.13,65,1,3.11,BR
583,Mnichovo Hradiste,50.5272,14.9713,47.66,71,0,12.17,CZ
584,Nichinan,31.6,131.3667,67.68,65,3,3.33,JP
585,Brooks,50.5834,-111.8851,23.04,85,100,2.3,CA
586,Camargo,27.6667,-105.1667,66.33,28,0,5.84,MX
587,Lahr,48.35,7.8667,43.66,92,100,6.91,DE
588,Omsukchan,62.5333,155.8,-5.73,80,0,3.85,RU
589,Trairi,-3.2778,-39.2689,79.54,80,41,11.9,BR
590,Kommunar,59.6206,30.39,34.45,88,15,4.34,RU
591,Moyale,3.5167,39.0584,66.06,82,73,3.71,KE
592,Lata,40.1629,-8.3327,59.92,96,100,4.47,PT
593,Raudeberg,61.9875,5.1352,51.87,54,18,7.78,NO
594,San Julian,21.0167,-102.1667,61.63,46,10,8.05,MX
595,Alekseyevka,50.6309,38.6903,39.0,71,8,16.24,RU
596,Matane,48.8286,-67.522,34.83,97,100,11.1,CA
597,Mayo,38.8876,-76.5119,45.09,57,0,13.8,US
598,Maine-Soroa,13.2114,12.0241,71.06,21,7,9.08,NE
599,Pithoro,25.5167,69.3833,71.85,74,0,9.31,PK
600,Frankfort,-27.2667,28.4833,52.77,93,5,10.8,ZA
601,Durango,24.8333,-104.8333,59.4,27,1,8.9,MX
602,Jaca,42.569,-0.5499,49.98,89,77,4.27,ES
603,Kjollefjord,70.9457,27.3465,33.85,93,40,4.61,NO
604,Kaili,-3.4626,120.2147,72.3,89,97,0.74,ID
605,Baltasi,56.3462,50.2062,31.24,92,100,22.86,RU
606,Gazanjyk,39.2446,55.5154,51.76,77,15,9.75,TM
607,Dauphin,51.1494,-100.0502,15.94,79,100,8.05,CA
608,Saldanha,-33.0117,17.9442,55.45,85,100,13.8,ZA
609,Araioses,-2.89,-41.9031,79.52,82,46,13.15,BR
610,Moose Factory,51.2585,-80.6094,24.8,93,100,8.05,CA
611,Salinopolis,-0.6136,-47.3561,79.38,83,96,11.68,BR
612,Teguldet,57.3064,88.1667,32.36,98,100,7.83,RU
613,Loding,67.3,14.75,39.11,95,13,10.36,NO
614,Casablanca,33.5928,-7.6192,73.33,31,94,4.0,MA
615,Rabaul,-4.1967,152.1721,83.79,69,97,4.81,PG
616,Pinawa,50.1489,-95.8811,11.62,96,92,3.62,CA
617,Klyuchi,52.2667,79.1667,31.21,71,100,18.41,RU
618,Virginia Beach,36.8529,-75.978,49.01,57,20,16.11,US
619,Palmer,42.1584,-72.3287,42.62,62,0,17.27,US
620,Kolokani,13.5728,-8.0339,78.19,31,40,3.49,ML
621,Kovdor,67.5662,30.4758,17.71,99,77,3.74,RU
622,Ritchie,-29.038,24.6028,59.63,56,0,11.72,ZA
623,Inuvik,68.3499,-133.7218,14.86,85,100,2.3,CA
624,Touros,-5.1989,-35.4608,78.08,82,9,10.29,BR
625,Binzhou,37.3667,118.0167,44.15,43,100,7.81,CN
626,Leshukonskoye,64.8989,45.7622,22.86,88,58,9.33,RU
627,Ketchikan,55.3422,-131.6461,46.87,93,100,10.36,US
628,Carlsbad,33.1581,-117.3506,62.01,67,0,11.99,US
629,Saint-Paul,-21.0096,55.2707,71.71,81,22,4.7,RE
630,Dno,57.8277,29.9637,41.22,70,100,4.83,RU
631,Mgandu,-5.95,34.1333,67.28,63,97,3.24,TZ
632,Contamana,-7.3333,-75.0167,84.87,55,100,3.29,PE
633,Wuan,31.6836,112.0044,47.55,83,100,1.14,CN
634,Podor,16.6527,-14.9587,83.61,12,54,9.71,MR
635,Puerto Madryn,-42.7692,-65.0385,66.52,49,2,3.96,AR
636,Xapuri,-10.6517,-68.5044,79.81,64,100,0.63,BR
637,Normandin,48.8333,-72.5321,28.71,80,89,8.05,CA
638,Teguise,29.0605,-13.564,62.82,39,0,2.3,ES
639,Bereda,43.2686,-7.5406,51.42,100,100,5.97,ES
640,Bicholim,15.5869,73.9462,75.85,77,8,4.76,IN
641,Bubaque,11.2833,-15.8333,82.53,66,9,6.78,GW
642,Playas,-2.6333,-80.3833,68.77,86,72,11.18,EC
643,Novoderevyankovskaya,46.3231,38.7472,44.17,91,100,7.56,RU
644,Hauterive,46.0901,3.4459,54.36,74,93,5.48,FR
645,Acapulco,16.8634,-99.8901,82.22,78,40,4.61,MX
646,Buala,-8.145,159.5921,85.87,61,39,4.12,SB
647,Karakol,42.4907,78.3936,25.09,51,82,5.19,KG
648,San Cristobal,7.7669,-72.225,66.38,98,100,0.58,VE
649,Pemberton,50.3164,-122.8027,37.09,79,48,0.2,CA
650,Senador Jose Porfirio,-2.5908,-51.9542,75.06,94,47,4.72,BR
651,Mercedes,-34.6515,-59.4307,64.63,96,100,15.82,AR
652,Tefe,-3.3542,-64.7114,81.28,75,97,1.19,BR
653,Chapais,49.7834,-74.8492,20.98,97,99,3.85,CA
654,Luganville,-15.5333,167.1667,82.99,74,21,1.28,VU
655,Prabumulih,-3.45,104.25,77.81,86,100,3.67,ID
656,Tutoia,-2.7619,-42.2744,79.47,83,33,13.58,BR
657,Malanville,11.8685,3.3899,75.74,27,5,6.69,BJ
658,Slonim,53.0867,25.3219,39.94,87,70,3.87,BY
659,Rawah,34.4816,41.9093,61.14,38,0,4.18,IQ
660,Bemidji,47.4736,-94.8803,22.77,86,100,0.0,US
661,Ust-Kuyga,70.0167,135.6,-29.15,99,100,3.42,RU
662,Aksarayskiy,46.7924,48.0119,44.98,69,100,22.62,RU
663,Dergachi,51.2328,48.7659,36.03,85,96,20.89,RU
664,Tadine,-21.55,167.8833,77.94,75,84,14.36,NC
665,Wainwright,52.839,-110.8572,21.58,94,100,6.13,CA
666,Uruzgan,32.8333,66.0,42.49,88,7,3.29,AF
667,Ayan,56.45,138.1667,23.88,56,7,6.58,RU
668,Puri,19.8,85.85,66.72,64,0,9.98,IN
669,Sabang,5.8933,95.3214,76.57,86,100,4.99,ID
670,San Vicente,-26.6167,-54.1333,62.78,99,100,4.56,AR
671,Antofagasta,-23.65,-70.4,61.88,70,9,5.39,CL
672,Sorland,67.667,12.6934,42.66,80,2,8.68,NO
673,Macon,39.8667,-88.9668,30.87,69,0,3.44,US
674,Nizhniy Ingash,56.2,96.53,33.08,91,100,14.03,RU
675,Severomuysk,56.1481,113.4267,1.33,81,96,2.28,RU
676,Boysun,38.2061,67.1986,36.75,78,95,3.91,UZ
677,Calhoun,42.2506,-85.0005,34.11,74,100,3.44,US
678,Turukhansk,65.8167,87.9833,-10.17,71,9,11.45,RU
679,Rio Cuarto,-33.1307,-64.3499,60.57,63,0,8.05,AR
680,Mogadishu,2.0371,45.3438,78.26,82,3,8.68,SO
681,Zhigansk,66.7697,123.3711,-30.82,100,100,2.46,RU
682,Escalerillas,22.1333,-101.0667,57.07,63,40,0.0,MX
683,La Ronge,55.1001,-105.2842,17.85,86,100,11.5,CA
684,Yanam,16.7333,82.2167,75.18,74,94,5.77,IN
685,Ewo,-0.8725,14.8206,71.31,95,100,2.06,CG
686,Tchollire,8.4022,14.1698,71.44,46,2,1.45,CM
687,Nanga Eboko,4.6833,12.3667,70.59,83,87,0.65,CM
688,Keelung,25.1283,121.7419,78.69,84,100,13.91,TW
689,Flin Flon,54.7682,-101.865,8.37,95,6,4.7,CA
690,Gaoua,10.2992,-3.2508,76.89,65,6,1.25,BF
691,Dubti,11.7361,41.0853,75.49,58,1,7.87,ET
692,Abu Samrah,35.3029,37.1841,59.0,54,1,3.89,SY
693,Moranbah,-22.0016,148.0466,90.1,31,99,7.14,AU
694,Svetlogorsk,52.6333,29.7333,36.21,95,6,5.21,BY
695,Iralaya,15.0,-83.2333,79.86,82,70,13.4,HN
